id,name.local,name.en,name.slug,code.id,geo.lat,geo.lon
ET010607,Adigudom,Adigudom,adigudom,ET010607,13.244,39.503
ET010604,Degua Temben,Degua Temben,degua-temben,ET010604,13.519,39.156
ET010602,Enderta,Enderta,enderta,ET010602,13.493,39.356
ET010605,Hagere Selam town,Hagere Selam town,hagere-selam-town,ET010605,13.64,39.17
ET010603,Hintalo,Hintalo,hintalo,ET010603,13.181,39.422
ET010601,Saharti,Saharti,saharti,ET010601,13.378,39.169
ET010606,Samre,Samre,samre,ET010606,13.114,39.174
ET010608,Wajirat,Wajirat,wajirat,ET010608,13.047,39.713
