id,name.local,name.en,name.slug,code.id,geo.lat,geo.lon
ET150109,Addis Ketema (DD),Addis Ketema (DD),addis-ketema-dd,ET150109,9.589,41.86
ET150111,Dechatu,Dechatu,dechatu,ET150111,9.601,41.883
ET150110,Gende Kore,Gende Kore,gende-kore,ET150110,9.6,41.855
ET150112,Hafat Issa,Hafat Issa,hafat-issa,ET150112,9.605,41.869
ET150113,Kazira,Kazira,kazira,ET150113,9.636,41.855
ET150105,Legehare,Legehare,legehare,ET150105,9.605,41.877
ET150104,Malka Jabti /M.Jebdu,Malka Jabti /M.Jebdu,malka-jabti-mjebdu,ET150104,9.629,41.795
ET150114,Police Maret,Police Maret,police-maret,ET150114,9.639,41.868
ET150103,Sabian,Sabian,sabian,ET150103,9.627,41.835
