id,name.local,name.en,name.slug,code.id,geo.lat,geo.lon
ET031401,Bahir Dar town,Bahir Dar town,bahir-dar-town,ET031401,11.594,37.386
ET031404,Deq,Deq,deq,ET031404,11.963,37.289
ET031405,Meshenti town,Meshenti town,meshenti-town,ET031405,11.461,37.266
ET031406,Tis Abay town,Tis Abay town,tis-abay-town,ET031406,11.496,37.568
ET031403,Zege town,Zege town,zege-town,ET031403,11.699,37.347
