id,name.local,name.en,name.slug,code.id,geo.lat,geo.lon
ET060207,Bulen,Bulen,bulen,ET060207,10.608,35.957
ET060201,Dangur,Dangur,dangur,ET060201,11.372,36.025
ET060205,Dibate,Dibate,dibate,ET060205,10.467,36.214
ET060200,Gilgel Beles town,Gilgel Beles town,gilgel-beles-town,ET060200,11.153,36.341
ET060202,Guba,Guba,guba,ET060202,11.497,35.456
ET060204,Mandura,Mandura,mandura,ET060204,11.02,36.279
ET060206,Pawe,Pawe,pawe,ET060206,11.298,36.409
ET060203,Wembera,Wembera,wembera,ET060203,10.606,35.552
