id,name.local,name.en,name.slug,code.id,geo.lat,geo.lon
ET110603,Amaya town,Amaya town,amaya-town,ET110603,7.097,36.668
ET110605,Ameya Zuria,Ameya Zuria,ameya-zuria,ET110605,6.981,36.657
ET110602,Chida town,Chida town,chida-town,ET110602,7.154,36.785
ET110604,Elahanchano,Elahanchano,elahanchano,ET110604,7.252,36.857
ET110601,Konta Koysha,Konta Koysha,konta-koysha,ET110601,6.695,36.513
